[
  { "name": "Waiblingen", "lat": 48.8306, "lon": 9.3195, "address": "Stuttgarter Str. 104, 71332 Waiblingen", "phone": "07151 951-200", "email": "info.wn@donner-partner.de", "stats": { "jobOpenings": "2451", "unemploymentRate": "4.5", "totalUnemployed": "11179", "unemployedSGB3": "4459", "unemployedSGB2": "6720" } },
  { "name": "Achern", "lat": 48.6325, "lon": 8.075, "address": "Hauptstraße 59, 77855 Achern", "phone": "07841 6841047", "email": "info.achern@donner-partner.eu", "stats": { "jobOpenings": "480", "unemploymentRate": "3.5", "totalUnemployed": "950", "unemployedSGB3": "400", "unemployedSGB2": "550" } },
  { "name": "Backnang", "lat": 48.9465, "lon": 9.4303, "address": "Annonay - Straße 1, 71522 Backnang", "phone": "07221 3784291", "email": "info.bad@donner-partner.eu", "stats": { "jobOpenings": "880", "unemploymentRate": "3.9", "totalUnemployed": "2100", "unemployedSGB3": "900", "unemployedSGB2": "1200" } },
  { "name": "Baden-Baden", "lat": 48.7606, "lon": 8.2397, "address": "Schwarzwaldstr. 139, 76532 Baden-Baden", "phone": "07221 3784291", "email": "info.bad@donner-partner.eu", "stats": { "jobOpenings": "1200", "unemploymentRate": "4.8", "totalUnemployed": "2300", "unemployedSGB3": "1000", "unemployedSGB2": "1300" } },
  { "name": "Calw", "lat": 48.715, "lon": 8.736, "address": "Biergasse 11, 75365 Calw", "phone": "07051 9346665", "email": "info.cw@donner-partner.de", "stats": { "jobOpenings": "650", "unemploymentRate": "3.2", "totalUnemployed": "1500", "unemployedSGB3": "650", "unemployedSGB2": "850" } },
  { "name": "Esslingen", "lat": 48.741, "lon": 9.311, "address": "Mettinger Str. 123, 73728 Esslingen", "phone": "0711 36576320", "email": "info.es@donner-partner.de", "stats": { "jobOpenings": "2800", "unemploymentRate": "4.1", "totalUnemployed": "6500", "unemployedSGB3": "2800", "unemployedSGB2": "3700" } },
  { "name": "Geislingen", "lat": 48.625, "lon": 9.829, "address": "Talgraben 40, 73312 Geislingen", "phone": "07331 9459294", "email": "info.geislingen@donner-partner.de", "stats": { "jobOpenings": "700", "unemploymentRate": "3.8", "totalUnemployed": "1800", "unemployedSGB3": "800", "unemployedSGB2": "1000" } },
  { "name": "Göppingen", "lat": 48.702, "lon": 9.653, "address": "Heinrich-Landerer-Straße 65, 73037 Göppingen", "phone": "07161 969736", "email": "info.gp@donner-partner.de", "stats": { "jobOpenings": "1900", "unemploymentRate": "3.7", "totalUnemployed": "4500", "unemployedSGB3": "2000", "unemployedSGB2": "2500" } },
  { "name": "Heidenheim", "lat": 48.677, "lon": 10.153, "address": "Friedrich-Ebert-Strasse 25/7, 89522 Heidenheim", "phone": "07321 4880810", "email": "info.hdh@donner-partner.de", "stats": { "jobOpenings": "1300", "unemploymentRate": "3.3", "totalUnemployed": "3200", "unemployedSGB3": "1400", "unemployedSGB2": "1800" } },
  { "name": "Heilbronn", "lat": 49.142, "lon": 9.218, "address": "Wilhelmstraße 23, 74072 Heilbronn", "phone": "07131 38578-0", "email": "info.hn@donner-partner.eu", "stats": { "jobOpenings": "3500", "unemploymentRate": "3.9", "totalUnemployed": "7800", "unemployedSGB3": "3100", "unemployedSGB2": "4700" } },
  { "name": "Karlsruhe", "lat": 49.006, "lon": 8.403, "address": "Benzstraße 15, 76185 Karlsruhe", "phone": "0721 8301044", "email": "info.ka@donner-partner.de", "stats": { "jobOpenings": "6500", "unemploymentRate": "4.5", "totalUnemployed": "12500", "unemployedSGB3": "5000", "unemployedSGB2": "7500" } },
  { "name": "Ludwigsburg", "lat": 48.897, "lon": 9.192, "address": "Mörikestraße 17-21, 71636 Ludwigsburg", "phone": "07141 922423", "email": "info.lb@donner-partner.eu", "stats": { "jobOpenings": "3200", "unemploymentRate": "3.6", "totalUnemployed": "7200", "unemployedSGB3": "3000", "unemployedSGB2": "4200" } },
  { "name": "Offenburg", "lat": 48.475, "lon": 7.947, "address": "Wilhelm-Röntgen-Straße 27, 77656 Offenburg", "phone": "0781 91906797", "email": "info.og@donner-partner.eu", "stats": { "jobOpenings": "1800", "unemploymentRate": "4.2", "totalUnemployed": "4800", "unemployedSGB3": "2100", "unemployedSGB2": "2700" } },
  { "name": "Pforzheim", "lat": 48.89, "lon": 8.70, "address": "Luisenstraße 27, 75172 Pforzheim", "phone": "07231 204030", "email": "info.pf@donner-partner.de", "stats": { "jobOpenings": "2500", "unemploymentRate": "6.5", "totalUnemployed": "6800", "unemployedSGB3": "2600", "unemployedSGB2": "4200" } },
  { "name": "Radolfzell", "lat": 47.737, "lon": 8.966, "address": "Walter-Schellenberg-Straße 7, 78315 Radolfzell", "phone": "07732 9453092", "email": "info.rzell@donner-partner.de", "stats": { "jobOpenings": "900", "unemploymentRate": "3.1", "totalUnemployed": "1900", "unemployedSGB3": "800", "unemployedSGB2": "1100" } },
  { "name": "Schorndorf", "lat": 48.805, "lon": 9.528, "address": "Stuttgarter Str. 61, 73614 Schorndorf", "phone": "07181 979703", "email": "info.schorndorf@donner-partner.de", "stats": { "jobOpenings": "850", "unemploymentRate": "3.5", "totalUnemployed": "1700", "unemployedSGB3": "750", "unemployedSGB2": "950" } },
  { "name": "Sindelfingen", "lat": 48.713, "lon": 9.002, "address": "Böblinger Straße 130, 71065 Sindelfingen", "phone": "07031 415573", "email": "info.sifi@donner-partner.de", "stats": { "jobOpenings": "2200", "unemploymentRate": "3.9", "totalUnemployed": "4900", "unemployedSGB3": "2100", "unemployedSGB2": "2800" } },
  { "name": "Stuttgart", "lat": 48.775, "lon": 9.182, "address": "Kriegerstraße 3, 70191 Stuttgart", "phone": "0711 603324", "email": "info.s@donner-partner.eu", "stats": { "jobOpenings": "15000", "unemploymentRate": "4.2", "totalUnemployed": "28000", "unemployedSGB3": "11000", "unemployedSGB2": "17000" } },
  { "name": "Tauberbischofsheim", "lat": 49.622, "lon": 9.662, "address": "Am Wört 1, 97941 Tauberbischofsheim", "phone": "09341 8589680", "email": "info.tbb@donner-partner.de", "stats": { "jobOpenings": "600", "unemploymentRate": "2.9", "totalUnemployed": "1200", "unemployedSGB3": "500", "unemployedSGB2": "700" } },
  { "name": "Ulm", "lat": 48.401, "lon": 9.987, "address": "Neutorstr. 12, 89073 Ulm", "phone": "07151 951-200", "email": "info.wn@donner-partner.de", "stats": { "jobOpenings": "3800", "unemploymentRate": "3.0", "totalUnemployed": "5500", "unemployedSGB3": "2200", "unemployedSGB2": "3300" } },
  { "name": "Wertheim", "lat": 49.758, "lon": 9.516, "address": "John-F.-Kennedy-Str. 4, 97877 Wertheim", "phone": "08041 7928886", "email": "info.badtoelz@donner-partner.eu", "stats": { "jobOpenings": "750", "unemploymentRate": "3.4", "totalUnemployed": "1400", "unemployedSGB3": "600", "unemployedSGB2": "800" } },
  { "name": "Bad Tölz", "lat": 47.76, "lon": 11.56, "address": "Prof.-Max-Lange-Platz 4, 83646 Bad Tölz", "phone": "08041 7928886", "email": "info.badtoelz@donner-partner.eu", "stats": { "jobOpenings": "750", "unemploymentRate": "2.8", "totalUnemployed": "1900", "unemployedSGB3": "800", "unemployedSGB2": "1100" } },
  { "name": "Deggendorf", "lat": 48.835, "lon": 12.963, "address": "Zieglerstraße 2a, 94469 Deggendorf", "phone": "0991 8517", "email": "info.deg@donner-partner.de", "stats": { "jobOpenings": "1100", "unemploymentRate": "3.0", "totalUnemployed": "2100", "unemployedSGB3": "900", "unemployedSGB2": "1200" } },
  { "name": "Karlstadt", "lat": 49.961, "lon": 9.769, "address": "Hauptstraße 69, 97753 Karlstadt", "phone": "09353 9840831", "email": "info.msp@donner-partner.eu", "stats": { "jobOpenings": "550", "unemploymentRate": "2.8", "totalUnemployed": "900", "unemployedSGB3": "400", "unemployedSGB2": "500" } },
  { "name": "Landshut", "lat": 48.536, "lon": 12.153, "address": "Johannisstraße 24, 84034 Landshut", "phone": "N/A", "email": "N/A", "stats": { "jobOpenings": "1800", "unemploymentRate": "2.7", "totalUnemployed": "2800", "unemployedSGB3": "1200", "unemployedSGB2": "1600" } },
  { "name": "Regen", "lat": 48.97, "lon": 13.127, "address": "Am Sand 8 1. OG, 94209 Regen", "phone": "09921 9079884", "email": "info.deg@donner-partner.de", "stats": { "jobOpenings": "450", "unemploymentRate": "2.9", "totalUnemployed": "800", "unemployedSGB3": "350", "unemployedSGB2": "450" } },
  { "name": "Rosenheim", "lat": 47.856, "lon": 12.128, "address": "Aventinstr. 2, 83022 Rosenheim", "phone": "08031 43668", "email": "info.ro@donner-partner.eu", "stats": { "jobOpenings": "2100", "unemploymentRate": "2.7", "totalUnemployed": "2900", "unemployedSGB3": "1200", "unemployedSGB2": "1700" } },
  { "name": "Straubing", "lat": 48.88, "lon": 12.576, "address": "Bahnhofstr. 5, 94315 Straubing", "phone": "09421 9298982", "email": "info.deg@donner-partner.de", "stats": { "jobOpenings": "1300", "unemploymentRate": "3.1", "totalUnemployed": "2400", "unemployedSGB3": "1000", "unemployedSGB2": "1400" } },
  { "name": "Würzburg", "lat": 49.791, "lon": 9.953, "address": "Gneisenaustr. 11, 97074 Würzburg", "phone": "0931 73041150", "email": "info.wue@donner-partner.eu", "stats": { "jobOpenings": "3500", "unemploymentRate": "3.8", "totalUnemployed": "5200", "unemployedSGB3": "2100", "unemployedSGB2": "3100" } },
  { "name": "Berlin", "lat": 52.517, "lon": 13.456, "address": "Möllendorffstraße 49, 10367 Berlin", "phone": "030 25095036", "email": "gs.b@donner-partner.de", "stats": { "jobOpenings": "28000", "unemploymentRate": "9.1", "totalUnemployed": "185000", "unemployedSGB3": "60000", "unemployedSGB2": "125000" } },
  { "name": "Limburg", "lat": 50.383, "lon": 8.066, "address": "Industriestraße 11-13, 65549 Limburg", "phone": "06431 9089577", "email": "info.lim@donner-partner.de", "stats": { "jobOpenings": "1400", "unemploymentRate": "4.8", "totalUnemployed": "3500", "unemployedSGB3": "1500", "unemployedSGB2": "2000" } },
  { "name": "Wiesbaden", "lat": 50.082, "lon": 8.24, "address": "Hagenauer Straße 17-19, 65203 Wiesbaden", "phone": "0611 44857410", "email": "info.wi@donner-partner.de", "stats": { "jobOpenings": "5500", "unemploymentRate": "7.1", "totalUnemployed": "11500", "unemployedSGB3": "4500", "unemployedSGB2": "7000" } },
  { "name": "Hannover", "lat": 52.375, "lon": 9.732, "address": "Büttnerstraße 19, 30165 Hannover", "phone": "0511 45960735", "email": "info.h@donner-partner.com", "stats": { "jobOpenings": "9500", "unemploymentRate": "7.8", "totalUnemployed": "24000", "unemployedSGB3": "9000", "unemployedSGB2": "15000" } },
  { "name": "Stadthagen", "lat": 52.325, "lon": 9.206, "address": "St. Annen 11, 31655 Stadthagen", "phone": "0671 97096-120", "email": "info.kh@donner-partner.com", "stats": { "jobOpenings": "800", "unemploymentRate": "5.5", "totalUnemployed": "2200", "unemployedSGB3": "900", "unemployedSGB2": "1300" } },
  { "name": "Bad Kreuznach", "lat": 49.847, "lon": 7.865, "address": "Europaplatz 13, 55543 Bad Kreuznach", "phone": "0671 97096-120", "email": "info.kh@donner-partner.com", "stats": { "jobOpenings": "950", "unemploymentRate": "5.2", "totalUnemployed": "4300", "unemployedSGB3": "1800", "unemployedSGB2": "2500" } },
  { "name": "Hachenburg", "lat": 50.662, "lon": 7.824, "address": "Lindenstraße 49, 57627 Hachenburg", "phone": "02662 8879020", "email": "info.ha@donner-partner.eu", "stats": { "jobOpenings": "700", "unemploymentRate": "4.5", "totalUnemployed": "1600", "unemployedSGB3": "700", "unemployedSGB2": "900" } },
  { "name": "Ingelheim", "lat": 49.974, "lon": 8.053, "address": "Konrad-Adenauer-Straße 30, 55218 Ingelheim", "phone": "06131 6372-470", "email": "deufoe.mz@donner-partner.eu", "stats": { "jobOpenings": "1100", "unemploymentRate": "4.2", "totalUnemployed": "2500", "unemployedSGB3": "1100", "unemployedSGB2": "1400" } },
  { "name": "Mainz", "lat": 50.001, "lon": 8.27, "address": "Rheinstr. 4, 55116 Mainz", "phone": "06131 6372-470", "email": "deufoe.mz@donner-partner.eu", "stats": { "jobOpenings": "4500", "unemploymentRate": "6.1", "totalUnemployed": "7800", "unemployedSGB3": "3000", "unemployedSGB2": "4800" } },
  { "name": "Westerburg", "lat": 50.563, "lon": 7.975, "address": "Neustraße 12-14, 56457 Westerburg", "phone": "02663 9649750", "email": "info.we@donner-partner.eu", "stats": { "jobOpenings": "600", "unemploymentRate": "4.7", "totalUnemployed": "1400", "unemployedSGB3": "600", "unemployedSGB2": "800" } },
  { "name": "Wissen", "lat": 50.781, "lon": 7.736, "address": "Böhmerstraße 16-20, 57537 Wissen", "phone": "03591 4640547", "email": "info.bz@donner-partner.de", "stats": { "jobOpenings": "800", "unemploymentRate": "5.1", "totalUnemployed": "1900", "unemployedSGB3": "800", "unemployedSGB2": "1100" } },
  { "name": "Bautzen", "lat": 51.181, "lon": 14.423, "address": "Wallstraße 12, 02625 Bautzen", "phone": "03591 4640547", "email": "info.bz@donner-partner.de", "stats": { "jobOpenings": "1100", "unemploymentRate": "6.8", "totalUnemployed": "5200", "unemployedSGB3": "1900", "unemployedSGB2": "3300" } },
  { "name": "Bautzen II", "lat": 51.173, "lon": 14.435, "address": "Wilthener Straße 32, 02625 Bautzen", "phone": "03591 5969-307", "email": "gs.bz@donner-partner.de", "stats": { "jobOpenings": "1100", "unemploymentRate": "6.8", "totalUnemployed": "5200", "unemployedSGB3": "1900", "unemployedSGB2": "3300" } },
  { "name": "Chemnitz", "lat": 50.833, "lon": 12.919, "address": "August-Bebel-Str. 11-13, 09113 Chemnitz", "phone": "0351 26057309", "email": "gs.dd@donner-partner.de", "stats": { "jobOpenings": "3500", "unemploymentRate": "7.9", "totalUnemployed": "10500", "unemployedSGB3": "3800", "unemployedSGB2": "6700" } },
  { "name": "Dresden", "lat": 51.05, "lon": 13.73, "address": "Berliner Straße 11, 01067 Dresden", "phone": "0351 42603388", "email": "gs.dd@donner-partner.de", "stats": { "jobOpenings": "7200", "unemploymentRate": "5.8", "totalUnemployed": "18000", "unemployedSGB3": "7000", "unemployedSGB2": "11000" } },
  { "name": "Dresden II", "lat": 51.06, "lon": 13.72, "address": "Berliner Straße 65, 01067 Dresden", "phone": "0351 26057309", "email": "gs.dd@donner-partner.de", "stats": { "jobOpenings": "7200", "unemploymentRate": "5.8", "totalUnemployed": "18000", "unemployedSGB3": "7000", "unemployedSGB2": "11000" } },
  { "name": "Görlitz", "lat": 51.152, "lon": 14.987, "address": "Postplatz 14/15, 02826 Görlitz", "phone": "03581 400570", "email": "gs.gr@donner-partner.de", "stats": { "jobOpenings": "900", "unemploymentRate": "9.5", "totalUnemployed": "4000", "unemployedSGB3": "1400", "unemployedSGB2": "2600" } },
  { "name": "Görlitz II", "lat": 51.155, "lon": 14.983, "address": "Jakobstraße 15, 02826 Görlitz", "phone": "03581 400570", "email": "gs.gr@donner-partner.de", "stats": { "jobOpenings": "900", "unemploymentRate": "9.5", "totalUnemployed": "4000", "unemployedSGB3": "1400", "unemployedSGB2": "2600" } },
  { "name": "Hoyerswerda", "lat": 51.436, "lon": 14.25, "address": "Thomas-Müntzer-Straße 25, 02977 Hoyerswerda", "phone": "03571 6098686", "email": "gs.hy@donner-partner.de", "stats": { "jobOpenings": "700", "unemploymentRate": "8.9", "totalUnemployed": "3500", "unemployedSGB3": "1200", "unemployedSGB2": "2300" } },
  { "name": "Kamenz", "lat": 51.27, "lon": 14.094, "address": "Zum Tower 4, 01917 Kamenz", "phone": "03578 3090217", "email": "gs.km@donner-partner.eu", "stats": { "jobOpenings": "500", "unemploymentRate": "5.8", "totalUnemployed": "1500", "unemployedSGB3": "600", "unemployedSGB2": "900" } },
  { "name": "Pirna", "lat": 50.962, "lon": 13.942, "address": "Longuyoner Str. 34, 01796 Pirna", "phone": "03501 5008268", "email": "gs.pir@donner-partner.de", "stats": { "jobOpenings": "800", "unemploymentRate": "5.5", "totalUnemployed": "2200", "unemployedSGB3": "900", "unemployedSGB2": "1300" } },
  { "name": "Radeberg", "lat": 51.116, "lon": 13.919, "address": "Straße des Friedens 8, 01454 Radeberg", "phone": "03528 2268904", "email": "gs.rdg@donner-partner.eu", "stats": { "jobOpenings": "600", "unemploymentRate": "4.9", "totalUnemployed": "1300", "unemployedSGB3": "500", "unemployedSGB2": "800" } },
  { "name": "Weißwasser", "lat": 51.506, "lon": 14.639, "address": "Braunsteichweg 33, 02943 Weißwasser", "phone": "03576 2989680", "email": "gs.wsw@donner-partner.de", "stats": { "jobOpenings": "400", "unemploymentRate": "10.2", "totalUnemployed": "2100", "unemployedSGB3": "700", "unemployedSGB2": "1400" } },
  { "name": "Zittau", "lat": 50.896, "lon": 14.807, "address": "Christian-Keimann-Straße 44a, 02763 Zittau", "phone": "03583 9389938", "email": "gs.zi@donner-partner.eu", "stats": { "jobOpenings": "650", "unemploymentRate": "8.7", "totalUnemployed": "2500", "unemployedSGB3": "900", "unemployedSGB2": "1600" } }
]